City_ID,City,Lat,Lng,Max Temp,Humidity,Cloudiness,Wind Speed,Country,Date
0,waitangi,-43.9535,-176.5597,8.23,81,100,5.16,NZ,1693058857
1,kursavka,44.4564,42.5093,26.89,27,10,4.99,RU,1693058858
2,edinburgh of the seven seas,-37.0676,-12.3116,15.21,85,99,15.22,SH,1693058859
3,ancud,-41.8697,-73.8203,5.26,72,6,2.47,CL,1693058859
4,blackmans bay,-43.0167,147.3167,4.29,88,50,1.68,AU,1693058665
5,port elizabeth,-33.918,25.5701,15.05,82,75,10.8,ZA,1693058861
6,the pas,53.8251,-101.2541,11.01,93,0,2.57,CA,1693058632
7,enewetak,11.3474,162.3373,27.23,80,100,6.12,MH,1693058862
8,egyek,47.6333,20.9,37.4,21,0,2.34,HU,1693058863
9,ad dabbah,18.05,30.95,44.53,9,7,1.59,SD,1693058864
10,bilibino,68.0546,166.4372,6.0,62,80,1.08,RU,1693058865
11,xichang,27.8964,102.2634,20.71,94,100,1.21,CN,1693058865
12,ushuaia,-54.8,-68.3,4.81,65,20,3.6,AR,1693058622
13,blagodarnyy,45.0978,43.4364,26.44,25,0,5.29,RU,1693058867
14,grytviken,-54.2811,-36.5092,-4.55,68,20,10.19,GS,1693058867
15,hawaiian paradise park,19.5933,-154.9731,21.73,96,100,2.57,US,1693058583
16,hadibu,12.65,54.0333,27.61,75,48,7.29,YE,1693058869
17,le port,-20.9373,55.2919,25.5,86,32,2.55,RE,1693058871
18,nuuk,64.1835,-51.7216,6.34,100,100,15.43,GL,1693058872
19,mizdah,31.4451,12.9801,35.48,16,0,3.4,LY,1693058873
20,albany,42.6001,-73.9662,24.05,80,17,0.45,US,1693058874
21,port blair,11.6667,92.75,28.02,83,40,2.57,IN,1693058874
22,peace river,56.2501,-117.286,12.03,100,0,4.12,CA,1693058607
23,port-aux-francais,-49.35,70.2167,3.8,73,51,6.99,TF,1693058876
24,papatowai,-46.5619,169.4708,5.16,82,79,6.18,NZ,1693058876
25,howrah,22.5892,88.3103,28.0,94,75,4.63,IN,1693058877
26,klyuchi,52.2667,79.1667,18.2,45,52,3.29,RU,1693058878
27,mount pearl,47.5166,-52.7813,19.42,80,61,1.34,CA,1693058879
28,uturoa,-16.7333,-151.4333,25.76,83,33,10.1,PF,1693058880
29,adamstown,-25.066,-130.1015,18.55,60,95,6.21,PN,1693058881
30,santa terezinha,-29.9002,-50.0904,13.67,61,3,4.68,BR,1693058881
31,happy valley-goose bay,53.3168,-60.3315,13.81,94,100,2.95,CA,1693058882
32,puerto natales,-51.7236,-72.4875,1.74,73,100,1.35,CL,1693058883
33,alofi,-19.0595,-169.9187,23.31,82,100,7.75,NU,1693058884
34,bechar,31.6167,-2.2167,38.47,10,0,4.5,DZ,1693058885
35,nova vicosa,-17.8919,-39.3719,29.23,61,18,1.91,BR,1693058635
36,peruibe,-24.32,-46.9983,16.36,94,100,5.0,BR,1693058887
37,bethel,41.3712,-73.414,24.75,80,93,0.45,US,1693058888
38,baidoa,3.1138,43.6498,33.35,28,33,7.38,SO,1693058889
39,badger,64.8,-147.5333,13.73,91,100,2.57,US,1693058889
40,cill airne,52.05,-9.5167,16.12,83,82,7.05,IE,1693058890
41,broome,42.2506,-75.833,23.14,83,75,3.09,US,1693058891
42,nema,57.5067,50.5011,10.69,86,100,2.59,RU,1693058893
43,avarua,-21.2078,-159.775,25.03,88,75,5.66,CK,1693058894
44,isafjordur,66.0755,-23.124,15.02,72,75,1.54,IS,1693058895
45,arendal,58.4615,8.7725,16.89,92,97,2.46,NO,1693058897
46,las veredas,23.1388,-109.7075,28.81,75,75,1.54,MX,1693058898
47,vorgashor,67.5833,63.95,5.15,98,100,4.19,RU,1693058899
48,jamestown,42.097,-79.2353,21.77,88,75,3.09,US,1693058900
49,odacho-oda,35.1833,132.5,24.8,87,17,2.33,JP,1693058901
50,juruti,-2.1522,-56.0922,34.8,35,0,2.25,BR,1693058902
51,amungan,15.3652,119.9582,26.46,84,100,3.52,PH,1693058902
52,nar'yan-mar,67.6713,53.087,7.26,82,100,4.7,RU,1693058640
53,nova sintra,14.8667,-24.7167,24.24,77,92,2.63,CV,1693058904
54,polyarnyy,69.1989,33.4478,11.55,76,83,4.45,RU,1693058905
55,guerrero negro,27.9769,-114.0611,20.06,86,2,3.71,MX,1693058632
56,ribeira grande,38.5167,-28.7,26.22,65,40,8.75,PT,1693058906
57,olonkinbyen,70.9221,-8.7187,6.47,97,100,7.7,SJ,1693058907
58,whitehorse,60.7161,-135.0538,11.43,79,20,3.6,CA,1693058744
59,mamuju,-2.6748,118.8885,25.85,83,42,3.1,ID,1693058909
60,imbituba,-28.24,-48.6703,16.03,50,25,3.49,BR,1693058797
61,albertina,-22.2008,-46.6158,24.69,47,53,1.88,BR,1693058910
62,wailua homesteads,22.0669,-159.378,26.44,84,20,5.66,US,1693058911
63,hermanus,-34.4187,19.2345,13.78,61,97,3.53,ZA,1693058619
64,pahrump,36.2083,-115.9839,21.03,29,0,1.66,US,1693058913
65,lihue,21.9789,-159.3672,26.77,78,20,5.66,US,1693058913
66,iqaluit,63.7506,-68.5145,5.39,86,100,4.02,CA,1693058914
67,arraial do cabo,-22.9661,-42.0278,18.92,88,100,5.66,BR,1693058751
68,fortuna,40.5982,-124.1573,14.4,96,100,0.0,US,1693058915
69,morehead city,34.7229,-76.726,30.02,81,100,5.14,US,1693058916
70,figuig (centre),32.1089,-1.2286,37.9,11,0,6.18,MA,1693058917
71,port augusta,-32.5,137.7667,11.37,94,7,4.06,AU,1693058918
72,forster,-32.1667,152.5167,12.5,87,53,1.93,AU,1693058918
73,yellowknife,62.456,-114.3525,18.01,89,75,2.57,CA,1693058768
74,saint-affrique,43.9558,2.8892,25.99,53,100,1.38,FR,1693058920
75,kumi,36.1136,128.336,23.75,82,46,0.21,KR,1693058920
76,yuzhno-kurilsk,44.0306,145.8556,20.41,97,98,5.22,RU,1693058630
77,tralee,52.2704,-9.7026,15.96,86,41,7.47,IE,1693058922
78,alice,27.7523,-98.0697,29.69,100,40,0.0,US,1693058922
79,kozluk,38.1938,41.4885,36.14,14,0,2.58,TR,1693058923
80,humberto de campos,-2.5983,-43.4611,31.91,50,2,4.5,BR,1693058924
81,colonia,50.9333,6.95,24.47,47,0,3.09,DE,1693058850
82,petropavlovsk-kamchatsky,53.0452,158.6483,12.1,100,55,4.47,RU,1693058925
83,palikir - national government center,6.9248,158.1611,23.41,94,100,1.54,FM,1693058628
84,kununurra,-15.7667,128.7333,24.99,22,0,3.6,AU,1693058926
85,olyokminsk,60.3736,120.4264,13.33,63,90,1.02,RU,1693058706
86,rongelap,11.1635,166.8941,26.99,75,100,3.04,MH,1693058927
87,fort mcmurray,56.7268,-111.381,10.77,100,0,1.54,CA,1693058798
88,maxcanu,20.5833,-89.9833,26.57,83,36,0.87,MX,1693058929
89,tiksi,71.6872,128.8694,9.49,100,100,1.71,RU,1693058929
90,dalandzadgad,43.5708,104.425,22.85,25,79,2.86,MN,1693058930
91,massawa,15.6097,39.45,35.09,61,17,3.54,ER,1693058931
92,zhumysker,49.3333,49.4,22.07,22,10,6.95,KZ,1693058931
93,punta arenas,-53.15,-70.9167,4.56,70,100,6.3,CL,1693058932
94,stanley,54.868,-1.6985,15.85,79,75,5.14,GB,1693058933
95,ust-nera,64.5667,143.2,7.43,74,7,0.6,RU,1693058933
96,port alfred,-33.5906,26.891,14.54,71,95,5.36,ZA,1693058934
97,ar ruways,24.1103,52.7306,36.44,52,55,4.99,AE,1693058935
98,college,64.8569,-147.8028,13.78,89,100,2.57,US,1693058775
99,sola,-13.8833,167.55,24.51,70,100,11.27,VU,1693058936
100,puerto ayora,-0.7393,-90.3518,26.98,92,85,3.13,EC,1693058937
101,ekibastuz,51.6667,75.3667,20.99,30,52,4.57,KZ,1693058937
102,kongsvinger,60.1905,11.9977,15.59,81,100,3.68,NO,1693058938
103,quepos,9.4236,-84.1652,28.11,76,1,0.54,CR,1693058939
104,west island,-12.1568,96.8225,25.99,83,75,8.23,CC,1693058940
105,brookings,44.3114,-96.7984,17.32,92,100,4.63,US,1693058710
106,morondava,-20.2833,44.2833,25.97,71,4,5.1,MG,1693058942
107,jining,35.405,116.5814,20.36,96,100,3.59,CN,1693058810
108,natal,-5.795,-35.2094,29.36,74,75,4.63,BR,1693058759
109,ialibu,-6.2821,143.9935,14.26,100,100,0.64,PG,1693058944
110,vryheid,-27.7695,30.7917,21.62,14,1,4.6,ZA,1693058944
111,tazovsky,67.4667,78.7,11.6,67,96,4.42,RU,1693058945
112,klaksvik,62.2266,-6.589,12.51,81,100,4.76,FO,1693058946
113,vernon,50.2581,-119.2691,15.16,74,1,0.22,CA,1693058899
114,lebu,-37.6167,-73.65,8.64,64,0,0.66,CL,1693058947
115,riohacha,11.5444,-72.9072,30.98,66,83,0.68,CO,1693058948
116,vilyuchinsk,52.9306,158.4028,12.92,85,81,3.24,RU,1693058949
117,port mathurin,-19.6833,63.4167,22.79,77,67,11.62,MU,1693058949
118,korla,41.7597,86.1469,30.35,17,4,1.79,CN,1693058950
119,green valley,31.8543,-110.9937,28.83,52,33,2.2,US,1693058951
120,hithadhoo,-0.6,73.0833,28.51,74,62,2.14,MV,1693058952
121,aioun,16.6614,-9.6149,41.58,13,29,5.83,MR,1693058953
122,newman,37.3138,-121.0208,17.38,85,0,2.04,US,1693058954
123,island harbour,50.724,-1.2758,20.55,70,88,2.24,GB,1693058955
124,kayangel,8.0823,134.7173,27.85,83,100,7.88,PW,1693058955
125,fale old settlement,-9.3852,-171.2468,27.26,80,100,4.75,TK,1693058956
126,alice springs,-23.7,133.8833,10.75,35,0,0.0,AU,1693058957
127,afaahiti,-17.75,-149.2833,24.93,81,83,10.03,PF,1693058667
128,ilebo,-4.3167,20.5833,27.94,64,92,1.2,CD,1693058757
129,pakxan,18.3778,103.6601,24.34,97,66,0.4,LA,1693058959
130,thompson,55.7435,-97.8558,15.01,71,0,4.31,CA,1693058960
131,quellon,-43.1167,-73.6167,7.14,87,0,4.12,CL,1693058671
132,ta`u,-14.2336,-169.5144,27.23,75,100,3.82,AS,1693058961
133,st. john's,47.5649,-52.7093,19.88,79,67,1.79,CA,1693058962
134,kralendijk,12.15,-68.2667,31.99,70,75,3.6,BQ,1693058963
135,san juan de miraflores,-12.1629,-76.9635,20.65,80,42,3.15,PE,1693058963
136,rikaze,29.25,88.8833,15.9,53,100,3.66,CN,1693058964
137,tual,-5.6667,132.75,25.36,86,98,9.16,ID,1693058965
138,york,40.1254,-77.0,26.97,73,7,3.22,US,1693058815
139,aguilas,37.4063,-1.5829,33.46,47,98,4.36,ES,1693058966
140,kingston,17.997,-76.7936,27.36,94,78,0.45,JM,1693058913
141,schweizer-reneke,-27.1887,25.3293,17.21,11,0,6.4,ZA,1693058968
142,namie,37.4833,141.0,25.4,93,100,1.76,JP,1693058969
143,bryne,58.7354,5.6477,16.43,86,75,3.6,NO,1693058970
144,lichuan,30.3,108.85,18.34,99,100,0.91,CN,1693058970
145,papao,-17.75,-149.55,25.82,79,14,10.59,PF,1693058971
146,north haven,41.3909,-72.8595,24.15,89,100,3.09,US,1693058972
147,yeppoon,-23.1333,150.7333,16.88,70,0,6.56,AU,1693058973
148,jiangyou,31.7667,104.7167,21.21,91,100,0.9,CN,1693058973
149,freeport,40.6576,-73.5832,25.99,91,100,6.69,US,1693058862
150,neiafu,-18.65,-173.9833,23.34,74,100,7.26,TO,1693058975
151,pangody,65.85,74.4859,8.73,85,100,5.88,RU,1693058976
152,geraldton,-28.7667,114.6,13.23,94,0,2.57,AU,1693058977
153,qamdo,31.1667,97.2333,4.96,86,97,1.53,CN,1693058977
154,redcar,54.6166,-1.06,17.27,77,57,1.83,GB,1693058979
155,ola,59.5833,151.2833,11.2,85,88,0.16,RU,1693058980
156,talnakh,69.4865,88.3972,10.67,90,100,5.17,RU,1693058981
157,inirida,3.8653,-67.9239,30.49,65,3,0.51,CO,1693058982
158,dudinka,69.4058,86.1778,10.9,91,100,5.93,RU,1693058982
159,carnarvon,-24.8667,113.6333,21.46,56,0,3.03,AU,1693058983
160,akureyri,65.6835,-18.0878,19.55,73,100,4.87,IS,1693058832
161,tshela,-4.9833,12.9333,29.38,54,95,2.27,CD,1693058991
162,praia da vitoria,38.7333,-27.0667,22.97,80,22,8.39,PT,1693058992
163,scarborough,54.2797,-0.4044,16.63,77,100,2.24,GB,1693058993
164,starokostiantyniv,49.7576,27.2034,33.53,29,3,7.2,UA,1693058993
165,den burg,53.0542,4.7972,19.99,84,75,5.14,NL,1693059011
166,vila franca do campo,37.7167,-25.4333,24.23,74,93,7.02,PT,1693059013
167,n'zeto,-7.2312,12.8666,24.59,76,7,4.9,AO,1693059016
168,sadao,6.6388,100.4234,27.01,92,7,1.54,TH,1693059017
169,mejit,10.2753,170.8646,27.68,81,100,7.14,MH,1693059017
170,touros,-5.1989,-35.4608,29.14,66,43,4.85,BR,1693059018
171,minas de marcona,-15.2119,-75.1103,14.27,74,53,4.67,PE,1693059019
172,atafu village,-8.5421,-172.5159,27.73,79,92,5.34,TK,1693059021
173,tolanaro,-25.0319,46.9987,23.73,74,0,8.98,MG,1693059022
174,dakhla,23.6848,-15.958,24.49,71,11,6.25,EH,1693059022
175,suntar,62.1444,117.6319,15.45,64,100,1.71,RU,1693059023
176,tughyl,47.7252,84.2063,20.93,64,53,1.89,KZ,1693059024
177,kidal,18.4411,1.4078,38.44,25,70,5.27,ML,1693059024
178,tobruk,32.0836,23.9764,28.56,63,0,5.79,LY,1693059025
179,osakarovka,50.565,72.5692,19.76,33,85,1.37,KZ,1693059026
180,longyearbyen,78.2186,15.6401,8.91,81,75,7.2,SJ,1693059026
181,walvis bay,-22.9575,14.5053,14.49,62,23,5.89,NA,1693059027
182,lompoc,34.6391,-120.4579,16.96,94,100,2.06,US,1693059027
183,dundaga,57.5167,22.35,17.72,98,100,1.93,LV,1693059028
184,winnipeg,49.8844,-97.147,15.01,90,75,1.03,CA,1693058776
185,constantia,44.1833,28.65,30.39,61,0,5.42,RO,1693059030
186,kavaratti,10.5669,72.642,27.53,78,58,2.58,IN,1693058978
187,pisco,-13.7,-76.2167,20.03,77,100,2.06,PE,1693059031
188,invercargill,-46.4,168.35,6.68,77,75,5.81,NZ,1693059033
189,luderitz,-26.6481,15.1594,21.05,37,0,9.62,NA,1693059033
190,pizarro,4.9533,-77.366,27.73,77,88,0.85,CO,1693059034
191,kailua-kona,19.6406,-155.9956,23.98,83,100,3.6,US,1693059035
192,anadyr,64.75,177.4833,0.28,93,0,1.0,RU,1693059036
193,huarmey,-10.0681,-78.1522,20.58,79,64,3.13,PE,1693059036
194,tucuma,-0.1833,-50.05,31.79,54,31,2.72,BR,1693059037
195,tainan,22.9908,120.2133,27.71,83,75,2.06,TW,1693059038
196,linhares,-19.3911,-40.0722,28.37,58,82,5.01,BR,1693059039
197,codrington,-38.2667,141.9667,9.87,79,100,3.12,AU,1693059039
198,sao gabriel da cachoeira,-0.1303,-67.0892,32.19,52,16,0.97,BR,1693059040
199,kokoda,-8.8785,147.7407,23.08,99,100,0.52,PG,1693059041
200,pozoblanco,38.3791,-4.8483,34.07,18,100,7.13,ES,1693059041
201,gadzhiyevo,69.2551,33.3362,11.58,75,77,4.57,RU,1693058756
202,kuraymah,18.55,31.85,45.28,11,5,3.48,SD,1693059042
203,sinabang,2.4803,96.3801,24.96,83,100,1.95,ID,1693059043
204,nyala,12.05,24.8833,29.26,52,100,4.06,SD,1693059044
205,filey,54.21,-0.2892,18.82,79,100,2.24,GB,1693059044
206,hamilton,39.1834,-84.5333,25.67,91,100,3.09,US,1693059045
207,atar,20.5169,-13.0499,43.22,12,6,5.84,MR,1693059046
208,ketchikan,55.3422,-131.6461,17.26,72,0,3.09,US,1693058769
209,inarajan village,13.2736,144.7484,27.54,91,100,10.09,GU,1693059047
210,toliara,-23.35,43.6667,25.43,65,0,3.17,MG,1693059047
211,zhaoqing,23.0512,112.4597,29.9,91,100,1.26,CN,1693059048
212,taksimo,56.3444,114.8794,15.34,74,56,0.86,RU,1693059049
213,kodiak,57.79,-152.4072,12.73,100,100,3.09,US,1693059049
214,tadine,-21.55,167.8833,18.9,70,13,7.28,NC,1693059050
215,pauini,-7.7136,-66.9764,35.67,36,4,0.52,BR,1693059051
216,loshnitsa,54.2789,28.7639,26.1,49,93,3.54,BY,1693059051
217,takoradi,4.8845,-1.7554,26.22,82,69,6.0,GH,1693059052
218,saipan,15.1355,145.701,27.58,100,20,2.57,MP,1693059053
219,suva,-18.1416,178.4415,20.71,88,75,2.06,FJ,1693059053
220,tabora,-5.0167,32.8,34.18,16,98,2.16,TZ,1693059054
221,conduaga,8.862,117.4893,26.69,87,100,2.61,PH,1693059055
222,inhambane,-23.865,35.3833,28.6,55,11,7.39,MZ,1693059055
223,haiku-pauwela,20.9219,-156.3051,23.91,73,100,4.63,US,1693059056
224,bredasdorp,-34.5322,20.0403,13.0,55,99,4.86,ZA,1693059056
225,thunder bay,48.4001,-89.3168,14.73,61,2,2.85,CA,1693058994
226,tazacorte,28.629,-17.9293,27.54,78,20,3.09,ES,1693059058
227,corner brook,48.9667,-57.9484,18.4,64,100,3.69,CA,1693058838
228,port macquarie,-31.4333,152.9167,10.5,86,39,1.42,AU,1693059059
229,xinyuan,37.3,99.0,3.52,94,90,2.2,CN,1693059060
230,hilo,19.7297,-155.09,21.85,94,100,2.57,US,1693058949
231,carutapera,-1.195,-46.02,30.57,62,54,3.72,BR,1693059062
232,igarka,67.4667,86.5833,9.1,92,16,4.41,RU,1693059062
233,queenstown,-31.8976,26.8753,10.04,33,14,8.39,ZA,1693059063
234,garango,11.8,-0.5506,28.36,69,100,3.42,BF,1693059063
235,gisborne,-38.6533,178.0042,6.82,92,16,2.51,NZ,1693059064
236,argo,37.6333,22.7333,33.21,27,39,4.32,GR,1693059065
237,burang,30.25,81.1667,9.59,78,62,2.93,CN,1693059066
238,funafuti,-8.5243,179.1942,28.24,74,94,3.42,TV,1693059066
239,hami,42.8,93.45,29.26,18,1,1.07,CN,1693059067
240,arambagh,22.8833,87.7833,27.44,85,100,3.42,IN,1693059068
241,xiaoweizhai,26.1903,107.5125,22.82,98,100,1.81,CN,1693059069
242,ilulissat,69.2167,-51.1,9.01,81,75,3.6,GL,1693059069
243,harstad,68.799,16.5293,20.66,78,85,0.89,NO,1693059070
244,howard springs,-12.497,131.047,21.95,73,87,2.33,AU,1693059071
245,ingeniero guillermo n. juarez,-23.9,-61.85,20.57,25,0,5.14,AR,1693059071
246,kolasib,24.2333,92.7,22.89,99,100,1.41,IN,1693059072
247,ts'nori,41.6209,45.9694,28.48,42,28,5.57,GE,1693059073
248,margaret river,-33.95,115.0667,13.62,88,24,1.78,AU,1693059073
249,georgetown,5.4112,100.3354,26.96,78,20,1.54,MY,1693058827
250,brokopondo,4.75,-55.1667,29.51,60,0,1.93,SR,1693059074
251,masterton,-40.9597,175.6575,10.49,94,94,1.83,NZ,1693059075
252,tamalpais valley,37.8796,-122.5458,16.02,94,8,2.24,US,1693059076
253,chonchi,-42.6128,-73.8092,6.73,73,16,1.94,CL,1693059077
254,bafra,41.5678,35.9069,27.83,49,0,4.78,TR,1693059077
255,sao miguel do araguaia,-13.275,-50.1628,28.61,53,100,0.84,BR,1693059079
256,mthatha,-31.5889,28.7844,15.31,26,20,9.26,ZA,1693059079
257,argungu,12.7433,4.5269,33.83,46,36,4.83,NG,1693059080
258,macau,22.2006,113.5461,30.48,84,20,3.6,MO,1693058530
259,jiaozuo,35.2397,113.2331,19.42,92,100,4.8,CN,1693059081
260,suonenjoki,62.6167,27.1333,19.55,39,1,2.69,FI,1693059082
261,ishigaki,24.3448,124.1572,28.79,75,89,0.55,JP,1693059083
262,rapla,59.0072,24.7928,21.84,73,100,3.43,EE,1693059083
263,ghanzi,-21.5667,21.7833,25.37,9,8,6.04,BW,1693059084
264,tayaman,13.2295,120.5726,26.66,81,100,2.07,PH,1693059085
265,mount gambier,-37.8333,140.7667,8.86,89,100,2.57,AU,1693059085
266,cockburn town,21.4612,-71.1419,28.46,73,0,3.87,TC,1693059049
267,santiago de cao,-7.9589,-79.2392,21.07,78,100,2.57,PE,1693059086
268,kalabo,-14.97,22.6814,37.16,6,0,3.26,ZM,1693059090
269,laboulaye,-34.1266,-63.3912,12.8,28,64,1.77,AR,1693059096
270,chernyshevskiy,63.0128,112.4714,14.2,67,30,1.32,RU,1693059099
271,porto novo,6.4965,2.6036,29.15,66,51,5.68,BJ,1693059100
272,sao joao do paraiso,-15.3136,-42.0144,31.93,31,100,3.76,BR,1693059101
273,laguna,38.421,-121.4238,20.6,90,0,0.0,US,1693059101
274,al qadarif,14.0349,35.3834,33.81,44,86,3.86,SD,1693059102
275,berdigestyakh,62.0989,126.6992,14.92,79,82,1.8,RU,1693059103
276,nemuro,43.3236,145.575,19.88,99,100,5.54,JP,1693059103
277,ardakan,32.31,54.0175,40.28,7,0,4.36,IR,1693059104
278,aasiaat,68.7098,-52.8699,3.98,92,100,4.8,GL,1693059105
279,vallenar,-28.5708,-70.7581,23.78,15,2,1.02,CL,1693059105
280,namibe,-15.1961,12.1522,20.85,72,11,5.07,AO,1693059106
281,eydhafushi,5.1033,73.0708,28.57,74,30,3.29,MV,1693059106
282,lewistown,40.5992,-77.5714,26.01,84,75,0.0,US,1693059107
283,holualoa,19.6228,-155.9522,21.91,84,100,3.6,US,1693059108
284,lakeview,42.432,-75.8655,22.43,88,5,1.34,US,1693059108
285,corn island,12.1694,-83.0418,28.43,76,66,2.55,NI,1693059109
286,sitangkai,4.6628,119.3928,28.73,74,2,4.66,PH,1693059109
287,milford haven,51.7128,-5.0341,17.84,72,85,6.42,GB,1693059110
288,al mijlad,11.0333,27.7333,25.57,65,100,3.66,SD,1693059111
289,castillos,-34.1667,-53.8333,11.33,51,0,3.4,UY,1693059111
290,zagora,30.3484,-5.8365,40.18,10,2,3.37,MA,1693059112
291,bosobolo,4.1833,19.9,29.72,64,92,0.63,CD,1693059112
292,udachny,66.4167,112.4,18.03,59,5,3.03,RU,1693059113
293,palmer,42.1584,-72.3287,24.8,76,75,2.06,US,1693059056
294,utrik,11.2278,169.8474,27.93,80,100,7.45,MH,1693059114
295,bhamo,24.2667,97.2333,24.3,99,100,0.65,MM,1693059115
296,qaqortoq,60.7167,-46.0333,7.05,97,100,1.77,GL,1693059116
297,san antonio de pale,-1.4014,5.6325,24.12,87,90,3.89,GQ,1693059116
298,zabaykal'sk,49.6333,117.3167,14.8,50,67,0.65,RU,1693059117
299,tabou,4.423,-7.3528,25.95,84,30,4.99,CI,1693059117
300,crane,31.3974,-102.3501,28.67,47,60,1.57,US,1693059118
301,las lomitas,-24.7096,-60.593,19.79,26,0,4.76,AR,1693059119
302,muroto-misakicho,33.2833,134.15,27.03,81,43,3.75,JP,1693059119
303,kapa'a,22.0752,-159.319,27.18,84,20,5.66,US,1693059120
304,xai-xai,-25.0519,33.6442,22.88,65,100,10.02,MZ,1693059120
305,mpwapwa,-6.35,36.4833,27.31,41,80,4.44,TZ,1693059121
306,sur,22.5667,59.5289,34.62,51,99,1.46,OM,1693059122
307,rayachoti,14.05,78.75,30.16,55,100,1.07,IN,1693059123
308,rawson,-43.3002,-65.1023,8.42,43,0,5.47,AR,1693059013
309,buzdyak,54.5833,54.55,14.41,45,99,4.94,RU,1693059124
310,belyy yar,53.6039,91.3903,18.94,77,0,4.0,RU,1693059125
311,amga,60.8953,131.9608,12.99,64,100,0.66,RU,1693059125
312,torghay,49.6339,63.4981,20.55,52,98,4.35,KZ,1693059126
313,labytnangi,66.6572,66.4183,7.91,75,93,4.88,RU,1693059127
314,camaqua,-30.8511,-51.8122,11.99,50,0,3.61,BR,1693059026
315,saint-joseph,-21.3667,55.6167,24.71,78,14,5.68,RE,1693059128
316,brooksville,28.5553,-82.3879,30.48,72,0,1.54,US,1693059041
317,lasem,-6.6922,111.4527,27.21,72,100,2.73,ID,1693059130
318,yanzhou,35.5528,116.8286,20.24,96,100,3.79,CN,1693059013
319,jaguaruna,-28.615,-49.0256,17.91,47,1,2.85,BR,1693058951
320,sumbe,-11.2061,13.8437,24.36,77,30,4.52,AO,1693059132
321,laascaanood,8.4774,47.3597,33.65,28,8,9.33,SO,1693059132
322,huntsville,34.7304,-86.5861,31.23,78,0,0.89,US,1693058898
323,zeya,53.75,127.2667,12.37,64,100,2.24,RU,1693059134
324,susuman,62.7833,148.1667,5.64,90,80,0.52,RU,1693059135
325,kurumkan,54.3,110.3,17.32,62,26,1.56,RU,1693059136
326,archangelos,36.2149,28.1149,28.5,56,0,2.1,GR,1693059136
327,jianshui,23.6363,102.8264,21.0,95,98,2.14,CN,1693059137
328,antsiranana,-12.2787,49.2917,25.5,71,3,7.98,MG,1693059138
329,san patricio,28.017,-97.5169,29.95,75,23,2.01,US,1693059138
330,kourou,5.1552,-52.6478,32.03,59,4,3.27,GF,1693059139
331,at taj,24.2049,23.2857,42.4,9,0,4.56,LY,1693059140
332,aiken,33.5835,-81.5998,30.74,68,0,3.09,US,1693059140
333,hovd,48.0056,91.6419,21.84,30,8,0.94,MN,1693059141
334,neryungri,56.6709,124.6491,7.53,76,5,1.76,RU,1693059142
335,lerwick,60.1545,-1.1494,16.0,92,92,3.72,GB,1693059142
336,revda,56.801,59.9303,11.32,69,99,3.48,RU,1693058948
337,homer,59.6425,-151.5483,16.94,72,100,4.12,US,1693059144
338,kone,-21.0595,164.8658,17.53,77,99,1.74,NC,1693059145
339,camana,-16.6228,-72.7111,18.26,77,74,2.59,PE,1693059018
340,qui nhon,13.7667,109.2333,29.76,69,37,2.73,VN,1693059146
341,tura,25.5198,90.2201,23.4,99,100,1.71,IN,1693059147
342,celestun,20.8667,-90.4,27.17,75,23,1.27,MX,1693059148
343,harper,4.375,-7.7169,26.36,81,52,5.15,LR,1693059148
344,flying fish cove,-10.4217,105.6791,23.82,83,40,6.69,CX,1693059149
345,kiunga,-6.1219,141.2906,22.41,97,100,1.37,PG,1693059150
346,katsuren-haebaru,26.3369,127.8719,28.01,98,20,2.06,JP,1693059150
347,tobelo,1.7284,128.0095,26.43,83,98,3.4,ID,1693059151
348,kristiansund,63.1115,7.732,21.03,60,40,3.6,NO,1693059152
349,rio grande,-32.035,-52.0986,14.06,53,4,5.52,BR,1693059157
350,leduc,53.2668,-113.552,14.1,86,15,2.27,CA,1693058770
351,upington,-28.4478,21.2561,16.21,17,0,3.09,ZA,1693059159
352,bandiagara,14.3501,-3.6104,25.2,67,100,4.67,ML,1693059159
353,ha'il,27.5219,41.6907,42.01,10,0,2.06,SA,1693059160
354,mount isa,-20.7333,139.5,16.87,36,0,2.57,AU,1693059161
355,jirja,26.3383,31.8916,42.12,12,0,8.23,EG,1693059161
356,lata,40.1629,-8.3327,24.4,35,0,7.05,PT,1693059162
357,saint-philippe,-21.3585,55.7679,24.77,81,25,7.14,RE,1693059162
358,trinidad,-14.8333,-64.9,29.92,33,51,3.62,BO,1693059163
359,mafinga,-7.25,35.0667,32.42,23,5,2.3,TZ,1693059164
360,marsh harbour,26.5412,-77.0636,28.6,74,21,4.21,BS,1693059164
361,xilin hot,43.9667,116.0333,14.72,46,1,2.42,CN,1693059165
362,lazaro cardenas,17.9583,-102.2,25.64,78,5,1.62,MX,1693059165
363,malango,-2.9627,119.9001,18.8,98,95,0.71,ID,1693059166
364,reggane,26.7158,0.1714,44.76,11,7,5.09,DZ,1693059167
365,verkhnevilyuysk,63.4453,120.3167,15.42,68,28,1.63,RU,1693059167
366,prakhon chai,14.6059,103.1208,26.65,81,100,3.12,TH,1693059168
367,ylitornio,66.3089,23.6773,19.18,46,40,1.91,FI,1693059168
368,adrar,20.5022,-10.0711,42.13,9,5,6.13,MR,1693059169
369,macenta,8.5435,-9.471,31.27,47,99,1.9,GN,1693059170
370,bonthe,7.5264,-12.505,28.64,73,81,4.4,SL,1693059170
371,canchungo,12.0672,-16.0333,30.99,61,16,3.35,GW,1693059171
372,katsuura,35.1333,140.3,25.81,85,0,1.91,JP,1693059171
373,sakata,38.9167,139.855,25.81,83,48,4.26,JP,1693059172
374,lamu,-2.2717,40.902,27.12,70,63,5.49,KE,1693059173
375,oamaru,-45.0784,170.9801,6.88,82,99,6.52,NZ,1693059173
376,awjilah,29.1081,21.2869,39.99,19,1,5.64,LY,1693059174
377,prince albert,53.2001,-105.7677,11.97,94,20,4.63,CA,1693059175
378,kerikeri,-35.2268,173.9474,6.62,91,9,1.87,NZ,1693059176
379,birjand,32.8663,59.2211,35.26,8,20,3.09,IR,1693059176
380,meadow lake,34.8014,-106.5436,21.23,63,12,1.97,US,1693059177
381,santa ana,33.7456,-117.8678,21.13,79,20,2.06,US,1693058953
382,sol'-iletsk,51.1631,54.9918,17.49,34,85,5.92,RU,1693059178
383,nishinoomote,30.7333,131.0,27.75,77,9,5.7,JP,1693059179
384,hafar al-batin,28.4328,45.9708,44.32,12,0,5.14,SA,1693059180
385,grahamstown,-33.3042,26.5328,11.08,57,76,10.78,ZA,1693059122
386,pennagaram,12.1333,77.9,29.75,48,100,1.69,IN,1693059181
387,nouadhibou,20.931,-17.0347,24.19,80,40,7.41,MR,1693059182
388,magadan,59.5667,150.8,11.55,81,99,1.7,RU,1693059013
389,fisterra,42.9049,-9.2629,21.68,73,60,6.71,ES,1693059183
390,lydenburg,-25.0978,30.4597,23.82,6,69,4.41,ZA,1693059184
391,weno,7.4515,151.8468,28.86,75,100,4.93,FM,1693059186
392,tumut,-35.3,148.2167,8.62,92,16,1.51,AU,1693059186
393,vilyuysk,63.7553,121.6247,16.41,68,68,2.33,RU,1693059187
394,grand falls-windsor,48.9332,-55.6649,20.84,56,10,1.34,CA,1693059188
395,skowhegan,44.7651,-69.7192,22.31,95,85,1.49,US,1693059141
396,pristen',51.2355,36.6959,22.77,44,99,2.49,RU,1693059189
397,kapuskasing,49.4169,-82.4331,8.05,76,100,3.09,CA,1693059190
398,guasdualito,7.2424,-70.7324,28.98,79,20,1.03,VE,1693059191
399,west hattiesburg,31.3191,-89.3751,31.12,63,0,2.24,US,1693058923
400,sungailiat,-1.85,106.1333,27.28,78,46,4.36,ID,1693059192
401,tibati,6.4667,12.6333,26.32,74,96,1.3,CM,1693059193
402,rocha,-34.4833,-54.3333,11.75,49,0,3.83,UY,1693059146
403,puerto baquerizo moreno,-0.9,-89.6,25.55,78,20,6.69,EC,1693059194
404,saint-pol-sur-ternoise,50.3811,2.3341,19.54,90,96,0.45,FR,1693059195
405,tofol,5.3248,163.0078,27.61,74,86,1.12,FM,1693059195
406,mingshui,36.7167,117.5,18.93,90,100,4.61,CN,1693059196
407,teocaltiche,21.4333,-102.5833,15.73,67,82,3.31,MX,1693059197
408,selfoss,63.9331,-20.9971,13.91,99,100,5.49,IS,1693059197
409,guarapari,-20.6667,-40.4975,24.94,86,95,6.16,BR,1693059198
410,kamloops,50.6665,-120.3192,13.65,78,16,0.69,CA,1693058928
411,vrangel',42.7297,133.0839,20.13,88,100,2.9,RU,1693059199
412,wewak,-3.5534,143.6268,26.5,88,62,3.82,PG,1693059200
413,chibougamau,49.9168,-74.3659,10.79,100,100,5.14,CA,1693059201
414,puerto aysen,-45.4,-72.7,5.04,99,99,1.98,CL,1693059201
415,al jawf,29.5,38.75,39.02,12,0,6.31,SA,1693059202
416,barra de santo antonio,-9.4047,-35.5072,28.6,74,95,4.45,BR,1693059178
417,wagrowiec,52.8084,17.1996,25.18,63,99,5.82,PL,1693059203
418,port moresby,-9.4431,147.1797,23.11,87,100,6.23,PG,1693059204
419,remire-montjoly,4.9167,-52.2667,32.02,58,75,2.57,GF,1693059204
420,partur,19.6,76.2167,27.51,67,100,3.17,IN,1693059205
421,ocean shores,46.9737,-124.1563,16.12,94,68,1.5,US,1693059206
422,brush,40.2589,-103.6238,17.57,100,94,2.06,US,1693059207
423,acapulco de juarez,16.8634,-99.8901,27.9,74,20,2.57,MX,1693059057
424,qiqihar,47.3408,123.9672,16.01,67,73,3.07,CN,1693059208
425,elko,41.0002,-115.5012,13.01,52,83,2.1,US,1693059208
426,bay city,43.5945,-83.8889,19.12,82,100,5.66,US,1693059011
427,naze,28.3667,129.4833,25.51,83,11,2.84,JP,1693059210
428,ivdel',60.6911,60.4206,10.59,77,99,3.15,RU,1693059210
429,ercis,39.0287,43.3586,27.25,26,8,2.48,TR,1693059212
430,ryotsu-minato,38.0833,138.4333,27.54,84,92,3.15,JP,1693059212
431,new norfolk,-42.7826,147.0587,4.84,85,87,0.59,AU,1693059213
432,poyarkovo,49.6,128.6833,13.59,95,91,1.8,RU,1693059213
433,luena,-11.7833,19.9167,35.81,7,60,2.29,AO,1693059214
434,saldanha,-33.0117,17.9442,13.54,57,34,5.86,ZA,1693059215
435,severo-yeniseyskiy,60.3725,93.0408,11.01,92,100,1.82,RU,1693059216
436,hammerfest,70.6634,23.6821,10.25,87,100,2.06,NO,1693059217
437,nagqu,31.5,92.0,5.97,88,100,2.97,CN,1693059218
438,tourlaville,49.6383,-1.5664,18.29,88,75,5.14,FR,1693059218
439,kenai,60.5544,-151.2583,13.38,98,100,2.57,US,1693059219
440,selibaby,15.159,-12.1829,37.03,39,95,5.96,MR,1693059219
441,isabela,6.7085,121.9711,26.43,83,75,1.66,PH,1693059220
442,nakamura,32.9833,132.9333,24.06,94,19,1.57,JP,1693059221
443,ouadda,8.0777,22.4007,25.99,87,99,2.57,CF,1693059221
444,kangiwa,12.5521,3.8187,32.68,48,64,3.76,NG,1693059222
445,pechora,65.1472,57.2244,6.08,90,100,3.64,RU,1693059222
446,bubaque,11.2833,-15.8333,27.05,78,21,2.52,GW,1693059223
447,santa cruz,-17.8,-63.1667,21.7,30,75,9.26,BO,1693059224
448,ulladulla,-35.35,150.4667,13.01,78,94,1.47,AU,1693059224
449,vytegra,61.0064,36.4481,16.42,50,12,3.87,RU,1693059225
450,canutama,-6.5339,-64.3831,35.76,33,1,1.09,BR,1693059226
451,bunia,1.5667,30.25,28.67,40,28,3.43,CD,1693059226
452,beledweyne,4.7358,45.2036,36.09,25,51,9.22,SO,1693059227
453,rivera,-30.9053,-55.5508,12.38,42,4,3.25,UY,1693059227
454,itarsi,22.6167,77.75,25.67,82,91,3.17,IN,1693059228
455,winnemucca,40.973,-117.7357,18.03,59,0,3.09,US,1693059229
456,les avirons,-21.2418,55.3394,23.55,65,20,3.09,RE,1693059229
457,baiao,-2.7906,-49.6717,34.11,45,3,1.65,BR,1693059230
458,cidreira,-30.1811,-50.2056,13.62,62,28,3.82,BR,1693059230
459,warrenton,-28.114,24.8475,15.71,14,0,6.12,ZA,1693058985
460,bathsheba,13.2167,-59.5167,31.34,74,20,4.63,BB,1693059231
461,saint-pierre,-21.3393,55.4781,25.32,65,20,3.09,RE,1693059232
462,kurchum,48.5722,83.6542,23.04,48,18,2.95,KZ,1693059233
463,greymouth,-42.4667,171.2,10.31,90,94,5.06,NZ,1693059233
464,tauranga,-37.6861,176.1667,7.7,91,8,0.45,NZ,1693058979
465,sitia,35.2,26.0986,30.55,69,0,6.97,GR,1693059234
466,tamanrasset,22.785,5.5228,34.66,17,93,7.22,DZ,1693059235
467,novyy urengoy,66.0833,76.6333,12.31,67,100,6.48,RU,1693059236
468,nizhniy odes,63.6445,54.856,6.45,87,100,3.16,RU,1693059236
469,ciudad lazaro cardenas,17.9583,-102.2,25.64,78,5,1.62,MX,1693059237
470,east london,-33.0153,27.9116,17.52,39,0,12.35,ZA,1693059237
471,hanawa,40.1836,140.7872,23.12,96,98,1.54,JP,1693059238
472,paita,-5.0892,-81.1144,21.24,75,17,5.53,PE,1693059239
473,kaihua,23.3687,104.28,20.43,96,98,2.49,CN,1693059240
474,caleta de carquin,-11.0925,-77.6267,19.97,78,35,4.03,PE,1693059240
475,acarau,-2.8856,-40.12,31.08,51,4,6.54,BR,1693059241
476,isangel,-19.55,169.2667,20.55,72,30,7.32,VU,1693059242
477,metlili chaamba,32.2667,3.6333,38.6,13,0,4.04,DZ,1693059243
478,bulungu,-4.55,18.6,34.18,35,92,2.44,CD,1693059244
479,khenchela,35.4358,7.1433,34.33,13,1,2.62,DZ,1693059244
480,pariaman,-0.619,100.12,25.03,89,100,1.92,ID,1693059245
481,rosetta,31.4044,30.4164,29.48,64,0,6.54,EG,1693059246
482,shimoda,34.6667,138.95,25.61,86,67,3.51,JP,1693059248
483,la passe,45.5549,-0.8967,26.13,52,84,5.7,FR,1693059248
484,port saint john's,-31.6229,29.5448,19.66,36,42,10.38,ZA,1693059249
485,yatou,37.15,122.3833,21.82,78,100,2.82,CN,1693059250
486,viedma,-40.8135,-62.9967,10.46,31,7,5.69,AR,1693059251
487,fang,19.9169,99.2145,23.79,97,100,1.02,TH,1693059123
488,wisla,49.6563,18.8591,26.93,68,100,1.2,PL,1693059253
489,bamboo flat,11.7,92.7167,28.05,83,40,2.57,IN,1693059254
490,keetmanshoop,-26.5833,18.1333,19.22,16,0,5.58,NA,1693059254
491,bezhetsk,57.7851,36.6965,18.32,66,52,1.47,RU,1693059255
492,sabang,5.8933,95.3214,28.46,73,23,8.38,ID,1693059256
493,mbanza-ngungu,-5.25,14.8667,31.81,36,70,3.21,CD,1693059257
494,tindouf,27.6711,-8.1474,42.22,10,1,2.57,DZ,1693059258
495,motygino,58.1831,94.7592,13.1,95,100,2.1,RU,1693059258
496,lorengau,-2.0226,147.2712,26.96,86,56,5.8,PG,1693059259
497,ploneour-lanvern,47.9,-4.2833,19.16,77,75,5.66,FR,1693059260
498,cabo san lucas,22.8909,-109.9124,29.17,71,13,2.68,MX,1693059006
499,port lincoln,-34.7333,135.8667,12.48,69,96,4.32,AU,1693059261
500,lautoka,-17.6167,177.4667,20.92,83,75,3.09,FJ,1693059261
501,markaz-e hukumat-e darweshan,31.1323,64.1934,34.07,9,0,1.04,AF,1693059262
502,bela,25.9333,81.9833,29.85,62,100,5.92,IN,1693059263
503,pionerskiy,54.9508,20.2275,21.91,80,100,3.15,RU,1693059264
504,gazli,40.1333,63.45,27.63,33,96,9.68,UZ,1693059264
505,sovetskiy,61.3614,63.5842,10.17,75,98,2.13,RU,1693059265
506,kuala belait,4.5833,114.1833,28.09,81,100,2.62,BN,1693059265
507,kodinsk,58.6881,99.1844,17.63,88,100,3.24,RU,1693059266
508,gebeit,21.0667,36.3167,42.23,12,5,4.35,SD,1693059267
509,kota kinabalu,5.9749,116.0724,27.71,83,20,2.57,MY,1693059267
510,duverge,18.3784,-71.5247,30.03,73,36,0.27,DO,1693059268
511,rio cauto,20.5603,-76.9161,30.01,64,66,1.72,CU,1693059269
512,new plymouth,-39.0667,174.0833,11.56,86,48,4.5,NZ,1693059181
513,iskushuban,10.2837,50.23,38.59,23,100,8.77,SO,1693059270
514,sitka,57.0531,-135.33,14.94,94,100,2.06,US,1693059049
515,copiapo,-27.3667,-70.3333,11.83,17,0,1.42,CL,1693059271
516,saudarkrokur,65.7461,-19.6394,15.25,86,100,6.75,IS,1693059272
517,sinan,34.8262,126.1086,24.06,81,68,4.17,KR,1693059210
518,khovd,48.0056,91.6419,21.84,30,8,0.94,MN,1693059273
519,cadale,2.7603,46.3222,26.47,75,26,8.35,SO,1693059279
520,melfort,52.8667,-104.6177,12.07,87,0,2.57,CA,1693059279
521,tan-tan,28.438,-11.1032,28.97,65,16,6.17,MA,1693059280
522,dumai,1.6833,101.45,24.29,96,93,0.98,ID,1693059281
523,prokop'yevsk,53.9059,86.719,14.87,82,43,1.8,RU,1693059281
524,monrovia,6.3005,-10.7969,28.87,78,87,5.06,LR,1693058998
525,loushanguan,28.1375,106.82,21.11,98,100,1.91,CN,1693059282
526,kampene,-3.6,26.6667,25.36,72,100,2.93,CD,1693059283
527,sain alto,23.5833,-103.25,17.14,66,15,1.9,MX,1693059284
528,balakhta,55.38,91.6,12.93,92,37,0.8,RU,1693059284
529,el nido,11.1858,119.3956,27.51,84,100,6.17,PH,1693059285
530,xinxiang,35.3089,113.8672,18.25,95,100,5.56,CN,1693059286
531,usogorsk,63.4106,48.6872,6.84,96,100,3.28,RU,1693059286
532,abadan,30.3392,48.3043,44.97,9,0,6.17,IR,1693059287
533,la mira,18.035,-102.3266,25.45,77,9,1.4,MX,1693059288
534,tiruvallur,13.15,79.9167,30.8,70,99,2.6,IN,1693059288
535,iwanai,42.9744,140.5089,23.22,96,32,0.66,JP,1693059289
536,banjar,-8.19,114.9675,23.44,90,9,2.34,ID,1693059289
537,kaa-khem,51.6833,94.7333,19.46,66,100,4.63,RU,1693059290
538,aleksandrovskoye,44.7142,43.0008,26.82,26,1,4.56,RU,1693059143
539,slave lake,55.2834,-114.769,8.99,84,100,2.06,CA,1693059291
540,pierre,44.3683,-100.351,15.71,87,0,2.68,US,1693059292
541,sidney,-33.8679,151.2073,13.61,86,19,0.0,AU,1693059186
542,coquimbo,-29.9533,-71.3436,16.25,61,20,2.31,CL,1693059149
543,fortaleza,-3.7227,-38.5247,29.07,65,75,5.66,BR,1693059073
544,codajas,-3.8367,-62.0569,35.9,31,8,1.21,BR,1693059294
545,bel ombre,-4.6167,55.4167,27.91,83,40,4.63,SC,1693059295
546,dul'durga,50.6761,113.5931,14.06,59,80,0.26,RU,1693059155
547,faaa,-17.55,-149.6,25.98,73,20,9.77,PF,1693059296
548,san agustin,20.5333,-103.4667,19.62,64,40,0.0,MX,1693059296
549,la jolla,32.8473,-117.2742,21.51,94,100,3.6,US,1693059297
550,chui,-33.6971,-53.4616,11.29,49,0,3.33,UY,1693059298
551,punta alta,-38.8759,-62.0736,11.71,42,10,3.45,AR,1693059298
552,kingscliff,-28.2667,153.5667,16.89,72,46,4.12,AU,1693059299
553,rabo de peixe,37.8,-25.5833,23.73,83,75,5.14,PT,1693059254
554,bengkulu,-3.8004,102.2655,24.8,87,75,3.38,ID,1693059236
555,barmer,25.75,71.3833,31.17,48,100,7.15,IN,1693059301
556,cannonvale,-20.2833,148.7,20.66,76,0,7.21,AU,1693059301
557,leava,-14.3,-178.1667,26.55,78,100,10.54,WF,1693059302
558,buka,40.8108,69.1986,29.83,20,34,4.63,UZ,1693059309
559,saurimo,-9.6608,20.3916,36.04,9,100,1.38,AO,1693059310
560,tobol'sk,58.2,68.2667,12.55,74,100,2.13,RU,1693059311
561,nikolayevsk-on-amure,53.1406,140.73,9.94,78,100,0.78,RU,1693059314
562,margate,51.3813,1.3862,20.39,65,57,4.92,GB,1693059263
563,kuanda,56.3161,116.0806,17.03,66,61,1.14,RU,1693059319
564,vredendal,-31.6683,18.5012,16.5,38,5,5.72,ZA,1693059320
